index,stop_id,stop_name,lat,lon,station_id
0,L06,1 Av,40.730953,-73.981628,0-1 Av
1,624,103 St,40.7906,-73.947478,1-103 St
2,A18,103 St,40.796092,-73.961454,2-103 St
3,119,103 St,40.799446,-73.968379,3-103 St
4,706,103 St - Corona Plaza,40.749865,-73.8627,4-103 St - Corona Plaza
5,J14,104 St,40.695178,-73.84433,5-104 St
6,A63,104 St,40.681711,-73.837683,6-104 St
7,623,110 St,40.79502,-73.94425,7-110 St
8,705,111 St,40.75173,-73.855334,8-111 St
9,J13,111 St,40.697418,-73.836345,9-111 St
10,A64,111 St,40.684331,-73.832163,10-111 St
11,226,116 St,40.802098,-73.949625,11-116 St
12,A16,116 St,40.805085,-73.954882,12-116 St
13,622,116 St,40.798629,-73.941617,13-116 St
14,117,116 St - Columbia University,40.807722,-73.96411,14-116 St - Columbia University
15,J12,121 St,40.700492,-73.828294,15-121 St
16,621,125 St,40.804138,-73.937594,16-125 St
17,225,125 St,40.807754,-73.945495,17-125 St
18,A15,125 St,40.811109,-73.952343,18-125 St
19,116,125 St,40.815581,-73.958372,19-125 St
20,224,135 St,40.814229,-73.94077,20-135 St
21,A14,135 St,40.817894,-73.947649,21-135 St
22,115,137 St - City College,40.822008,-73.953676,22-137 St - City College
23,416,138 St - Grand Concourse,40.813224,-73.929849,23-138 St - Grand Concourse
24,132,14 St,40.737826,-74.000201,24-14 St
25,A31,14 St,40.740893,-74.00169,25-14 St
26,D19,14 St,40.738228,-73.996209,26-14 St
27,635,14 St - Union Sq,40.734673,-73.989951,27-14 St - Union Sq
28,R20,14 St - Union Sq,40.735736,-73.990568,27-14 St - Union Sq
29,A12,145 St,40.824783,-73.944216,28-145 St
30,302,145 St,40.820421,-73.936245,29-145 St
31,D13,145 St,40.824783,-73.944216,30-145 St
32,114,145 St,40.826551,-73.95036,31-145 St
33,222,149 St - Grand Concourse,40.81841,-73.926718,32-149 St - Grand Concourse
34,415,149 St - Grand Concourse,40.818375,-73.927351,32-149 St - Grand Concourse
35,F25,15 St - Prospect Park,40.660365,-73.979493,33-15 St - Prospect Park
36,D12,155 St,40.830135,-73.938209,34-155 St
37,A11,155 St,40.830518,-73.941514,35-155 St
38,113,157 St,40.834041,-73.94489,36-157 St
39,414,161 St - Yankee Stadium,40.827994,-73.925831,37-161 St - Yankee Stadium
40,D11,161 St - Yankee Stadium,40.827905,-73.925651,37-161 St - Yankee Stadium
41,A10,163 St - Amsterdam Av,40.836013,-73.939892,38-163 St - Amsterdam Av
42,D10,167 St,40.833771,-73.91844,39-167 St
43,413,167 St,40.835537,-73.9214,40-167 St
44,A09,168 St,40.840719,-73.939561,41-168 St
45,112,168 St - Washington Hts,40.840556,-73.940133,42-168 St - Washington Hts
46,F02,169 St,40.71047,-73.793604,43-169 St
47,412,170 St,40.840075,-73.917791,44-170 St
48,D09,170 St,40.839306,-73.9134,45-170 St
49,215,174 St,40.837288,-73.887734,46-174 St
50,D08,174-175 Sts,40.8459,-73.910136,47-174-175 Sts
51,A07,175 St,40.847391,-73.939704,48-175 St
52,410,176 St,40.84848,-73.911794,49-176 St
53,B19,18 Av,40.607954,-74.001736,50-18 Av
54,F30,18 Av,40.629755,-73.976971,51-18 Av
55,N05,18 Av,40.620671,-73.990414,52-18 Av
56,131,18 St,40.74104,-73.997871,53-18 St
57,A06,181 St,40.851695,-73.937969,54-181 St
58,111,181 St,40.849505,-73.933596,55-181 St
59,D06,182-183 Sts,40.856093,-73.900741,56-182-183 Sts
60,408,183 St,40.858407,-73.903879,57-183 St
61,A05,190 St,40.859022,-73.93418,58-190 St
62,110,191 St,40.855225,-73.929412,59-191 St
63,F14,2 Av,40.723402,-73.989938,60-2 Av
64,B20,20 Av,40.604556,-73.998168,61-20 Av
65,N06,20 Av,40.61741,-73.985026,62-20 Av
66,108,207 St,40.864621,-73.918822,63-207 St
67,G24,21 St,40.744065,-73.949724,64-21 St
68,B04,21 St - Queensbridge,40.754203,-73.942836,65-21 St - Queensbridge
69,107,215 St,40.869444,-73.915279,66-215 St
70,207,219 St,40.883895,-73.862633,67-219 St
71,206,225 St,40.888022,-73.860341,68-225 St
72,A30,23 St,40.745906,-73.998041,69-23 St
73,R19,23 St,40.741303,-73.989344,70-23 St
74,130,23 St,40.744081,-73.995657,71-23 St
75,634,23 St,40.739864,-73.986599,72-23 St
76,D18,23 St,40.742878,-73.992821,73-23 St
77,104,231 St,40.878856,-73.904834,74-231 St
78,205,233 St,40.893193,-73.857473,75-233 St
79,103,238 St,40.884667,-73.90087,76-238 St
80,B22,25 Av,40.597704,-73.986829,77-25 Av
81,R35,25 St,40.660397,-73.998091,78-25 St
82,R18,28 St,40.745494,-73.988691,79-28 St
83,129,28 St,40.747215,-73.993365,80-28 St
84,633,28 St,40.74307,-73.984264,81-28 St
85,L05,3 Av,40.732849,-73.986122,82-3 Av
86,619,3 Av - 138 St,40.810476,-73.926138,83-3 Av - 138 St
87,221,3 Av - 149 St,40.816109,-73.917757,84-3 Av - 149 St
88,R04,30 Av,40.766779,-73.921479,85-30 Av
89,716,33 St,40.744587,-73.930997,86-33 St
90,632,33 St,40.746081,-73.982076,87-33 St
91,726,34 St - 11 Av,40.755882,-74.00191,88-34 St - 11 Av
92,D17,34 St - Herald Sq,40.749719,-73.987823,89-34 St - Herald Sq
93,R17,34 St - Herald Sq,40.749567,-73.98795,89-34 St - Herald Sq
94,128,34 St - Penn Station,40.750373,-73.991057,90-34 St - Penn Station
95,A28,34 St - Penn Station,40.752287,-73.993391,91-34 St - Penn Station
96,R06,36 Av,40.756804,-73.929575,92-36 Av
97,R36,36 St,40.655144,-74.003549,93-36 St
98,G20,36 St,40.752039,-73.928781,94-36 St
99,R08,39 Av,40.752882,-73.932755,95-39 Av
100,F23,4 Av,40.670272,-73.989779,96-4 Av
101,715,40 St,40.743781,-73.924016,97-40 St
102,D16,42 St - Bryant Pk,40.754222,-73.984569,98-42 St - Bryant Pk
103,A27,42 St - Port Authority Bus Terminal,40.757308,-73.989735,99-42 St - Port Authority Bus Terminal
104,R39,45 St,40.648939,-74.010006,100-45 St
105,714,46 St,40.743132,-73.918435,101-46 St
106,G18,46 St,40.756312,-73.913333,102-46 St
107,D15,47-50 Sts - Rockefeller Ctr,40.758663,-73.981329,103-47-50 Sts - Rockefeller Ctr
108,R15,49 St,40.759901,-73.984139,104-49 St
109,724,5 Av,40.753821,-73.981963,105-5 Av
110,F12,5 Av/53 St,40.760167,-73.975224,106-5 Av/53 St
111,R13,5 Av/59 St,40.764811,-73.973347,107-5 Av/59 St
112,B14,50 St,40.63626,-73.994791,108-50 St
113,A25,50 St,40.762456,-73.985984,109-50 St
114,126,50 St,40.761728,-73.983849,110-50 St
115,630,51 St,40.757107,-73.97192,111-51 St
116,713,52 St,40.744149,-73.912549,112-52 St
117,R40,53 St,40.645069,-74.014034,113-53 St
118,B15,55 St,40.631435,-73.995476,114-55 St
119,B10,57 St,40.763972,-73.97745,115-57 St
120,R14,57 St - 7 Av,40.764664,-73.980658,116-57 St - 7 Av
121,R41,59 St,40.641362,-74.017881,117-59 St
122,629,59 St,40.762526,-73.967967,118-59 St
123,125,59 St - Columbus Circle,40.768247,-73.981929,119-59 St - Columbus Circle
124,A24,59 St - Columbus Circle,40.768296,-73.981736,119-59 St - Columbus Circle
125,L02,6 Av,40.737335,-73.996786,120-6 Av
126,B16,62 St,40.626472,-73.996895,121-62 St
127,G10,63 Dr - Rego Park,40.729846,-73.861604,122-63 Dr - Rego Park
128,G15,65 St,40.749669,-73.898453,123-65 St
129,124,66 St - Lincoln Center,40.77344,-73.982209,124-66 St - Lincoln Center
130,G09,67 Av,40.726523,-73.852719,125-67 Av
131,628,68 St - Hunter College,40.768141,-73.96387,126-68 St - Hunter College
132,711,69 St,40.746325,-73.896403,127-69 St
133,F24,7 Av,40.666271,-73.980305,128-7 Av
134,D14,7 Av,40.762862,-73.981637,129-7 Av
135,D25,7 Av,40.67705,-73.972367,130-7 Av
136,B17,71 St,40.619589,-73.998864,131-71 St
137,Q03,72 St,40.768799,-73.958424,132-72 St
138,123,72 St,40.778453,-73.98197,133-72 St
139,A22,72 St,40.775594,-73.97641,134-72 St
140,710,74 St - Broadway,40.746848,-73.891394,135-74 St - Broadway
141,F07,75 Av,40.718331,-73.837324,136-75 Av
142,J17,75 St,40.691324,-73.867139,137-75 St
143,R43,77 St,40.629742,-74.02551,138-77 St
144,627,77 St,40.77362,-73.959874,139-77 St
145,B18,79 St,40.613501,-74.00061,140-79 St
146,122,79 St,40.783934,-73.979917,141-79 St
147,L01,8 Av,40.739777,-74.002578,142-8 Av
148,N02,8 Av,40.635064,-74.011719,143-8 Av
149,R21,8 St - NYU,40.730328,-73.992629,144-8 St - NYU
150,A59,80 St,40.679371,-73.858992,145-80 St
151,A21,81 St - Museum of Natural History,40.781433,-73.972143,146-81 St - Museum of Natural History
152,709,82 St - Jackson Hts,40.747659,-73.883697,147-82 St - Jackson Hts
153,J16,85 St - Forest Pkwy,40.692435,-73.86001,148-85 St - Forest Pkwy
154,A20,86 St,40.785868,-73.968916,149-86 St
155,Q04,86 St,40.777891,-73.951787,150-86 St
156,R44,86 St,40.622687,-74.028398,151-86 St
157,121,86 St,40.788644,-73.976218,152-86 St
158,N10,86 St,40.592721,-73.97823,153-86 St
159,626,86 St,40.779492,-73.955589,154-86 St
160,A60,88 St,40.679843,-73.85147,155-88 St
161,B12,9 Av,40.646292,-73.994324,156-9 Av
162,R33,9 St,40.670847,-73.988302,157-9 St
163,708,90 St - Elmhurst Av,40.748408,-73.876613,158-90 St - Elmhurst Av
164,A19,96 St,40.791642,-73.964696,159-96 St
165,Q05,96 St,40.784318,-73.947152,160-96 St
166,120,96 St,40.793919,-73.972323,161-96 St
167,625,96 St,40.785672,-73.95107,162-96 St
168,J24,Alabama Av,40.676992,-73.898654,163-Alabama Av
169,210,Allerton Av,40.865462,-73.867352,164-Allerton Av
170,S17,Annadale,40.54046,-74.178217,165-Annadale
171,H02,Aqueduct - N Conduit Av,40.668234,-73.834058,166-Aqueduct - N Conduit Av
172,H01,Aqueduct Racetrack,40.668234,-73.834058,167-Aqueduct Racetrack
173,S11,Arthur Kill,40.516578,-74.242096,168-Arthur Kill
174,636,Astor Pl,40.730054,-73.99107,169-Astor Pl
175,R01,Astoria - Ditmars Blvd,40.775036,-73.912034,170-Astoria - Ditmars Blvd
176,R03,Astoria Blvd,40.770258,-73.917843,171-Astoria Blvd
177,S10,Atlantic,40.515401,-74.245689,172-Atlantic
178,L24,Atlantic Av,40.675345,-73.903097,173-Atlantic Av
179,R31,Atlantic Av - Barclays Ctr,40.683666,-73.97881,174-Atlantic Av - Barclays Ctr
180,235,Atlantic Av - Barclays Ctr,40.684359,-73.977666,174-Atlantic Av - Barclays Ctr
181,D24,Atlantic Av - Barclays Ctr,40.68446,-73.97689,174-Atlantic Av - Barclays Ctr
182,D32,Avenue H,40.62927,-73.961639,175-Avenue H
183,F31,Avenue I,40.625322,-73.976127,176-Avenue I
184,D33,Avenue J,40.625039,-73.960803,177-Avenue J
185,D34,Avenue M,40.617618,-73.959399,178-Avenue M
186,F33,Avenue N,40.61514,-73.974197,179-Avenue N
187,F34,Avenue P,40.608944,-73.973022,180-Avenue P
188,N09,Avenue U,40.597473,-73.979137,181-Avenue U
189,F36,Avenue U,40.596063,-73.973357,182-Avenue U
190,D37,Avenue U,40.5993,-73.955929,183-Avenue U
191,F38,Avenue X,40.58962,-73.97425,184-Avenue X
192,B23,Bay 50 St,40.588841,-73.983765,185-Bay 50 St
193,B21,Bay Pkwy,40.601875,-73.993728,186-Bay Pkwy
194,N07,Bay Pkwy,40.611815,-73.981848,187-Bay Pkwy
195,F32,Bay Pkwy,40.620769,-73.975264,188-Bay Pkwy
196,R45,Bay Ridge - 95 St,40.616622,-74.030876,189-Bay Ridge - 95 St
197,R42,Bay Ridge Av,40.634967,-74.023377,190-Bay Ridge Av
198,S20,Bay Terrace,40.5564,-74.136907,191-Bay Terrace
199,502,Baychester Av,40.878663,-73.838591,192-Baychester Av
200,H14,Beach 105 St,40.583209,-73.827559,193-Beach 105 St
201,H10,Beach 25 St,40.600066,-73.761353,194-Beach 25 St
202,H09,Beach 36 St,40.595398,-73.768175,195-Beach 36 St
203,H08,Beach 44 St,40.592943,-73.776013,196-Beach 44 St
204,H07,Beach 60 St,40.592374,-73.788522,197-Beach 60 St
205,H06,Beach 67 St,40.590927,-73.796924,198-Beach 67 St
206,H12,Beach 90 St,40.588034,-73.813641,199-Beach 90 St
207,H13,Beach 98 St,40.585307,-73.820558,200-Beach 98 St
208,G33,Bedford - Nostrand Avs,40.689627,-73.953522,201-Bedford - Nostrand Avs
209,L08,Bedford Av,40.717304,-73.956872,202-Bedford Av
210,D03,Bedford Park Blvd,40.873244,-73.887138,203-Bedford Park Blvd
211,405,Bedford Park Blvd - Lehman College,40.873412,-73.890064,204-Bedford Park Blvd - Lehman College
212,F20,Bergen St,40.686145,-73.990862,205-Bergen St
213,236,Bergen St,40.680829,-73.975098,206-Bergen St
214,D29,Beverley Rd,40.644031,-73.964492,207-Beverley Rd
215,245,Beverly Rd,40.645098,-73.948959,208-Beverly Rd
216,637,Bleecker St,40.725915,-73.994659,209-Bleecker St
217,232,Borough Hall,40.693219,-73.989998,210-Borough Hall
218,423,Borough Hall,40.692404,-73.990151,210-Borough Hall
219,S04,Botanic Garden,40.670343,-73.959245,211-Botanic Garden
220,M19,Bowery,40.72028,-73.993915,212-Bowery
221,420,Bowling Green,40.704817,-74.014065,213-Bowling Green
222,F05,Briarwood - Van Wyck Blvd,40.709179,-73.820574,214-Briarwood - Van Wyck Blvd
223,D40,Brighton Beach,40.577621,-73.961376,215-Brighton Beach
224,H04,Broad Channel,40.608382,-73.815925,216-Broad Channel
225,H19,Broad Channel,40.609014,-73.816024,216-Broad Channel
226,M23,Broad St,40.706476,-74.011056,217-Broad St
227,G30,Broadway,40.706092,-73.950308,218-Broadway
228,R05,Broadway,40.76182,-73.925508,219-Broadway
229,A51,Broadway Jct,40.678334,-73.905316,220-Broadway Jct
230,J27,Broadway Jct,40.679498,-73.904512,220-Broadway Jct
231,L22,Broadway Jct,40.678856,-73.90324,220-Broadway Jct
232,D21,Broadway-Lafayette St,40.725297,-73.996204,221-Broadway-Lafayette St
233,212,Bronx Park East,40.848828,-73.868457,222-Bronx Park East
234,618,Brook Av,40.807566,-73.91924,223-Brook Av
235,640,Brooklyn Bridge - City Hall,40.713065,-74.004131,224-Brooklyn Bridge - City Hall
236,602,Buhre Av,40.84681,-73.832569,225-Buhre Av
237,209,Burke Av,40.871356,-73.867164,226-Burke Av
238,409,Burnside Av,40.853453,-73.907684,227-Burnside Av
239,L21,Bushwick Av - Aberdeen St,40.682829,-73.905249,228-Bushwick Av - Aberdeen St
240,R23,Canal St,40.719527,-74.001775,229-Canal St
241,639,Canal St,40.718803,-74.000193,229-Canal St
242,Q01,Canal St,40.718383,-74.00046,229-Canal St
243,135,Canal St,40.722854,-74.006277,230-Canal St
244,M20,Canal St,40.718092,-73.999892,231-Canal St
245,A34,Canal St,40.720824,-74.005229,232-Canal St
246,L29,Canarsie - Rockaway Pkwy,40.646654,-73.90185,233-Canarsie - Rockaway Pkwy
247,F21,Carroll St,40.680303,-73.995048,234-Carroll St
248,607,Castle Hill Av,40.834255,-73.851222,235-Castle Hill Av
249,118,Cathedral Pkwy,40.803967,-73.966847,236-Cathedral Pkwy
250,A17,Cathedral Pkwy (110 St),40.800603,-73.958161,237-Cathedral Pkwy (110 St)
251,M10,Central Av,40.697857,-73.927397,238-Central Av
252,227,Central Park North (110 St),40.799075,-73.951822,239-Central Park North (110 St)
253,137,Chambers St,40.715478,-74.009266,240-Chambers St
254,A36,Chambers St,40.714111,-74.008585,241-Chambers St
255,M21,Chambers St,40.713243,-74.003401,242-Chambers St
256,J28,Chauncey St,40.682893,-73.910456,243-Chauncey St
257,133,Christopher St - Sheridan Sq,40.733422,-74.002906,244-Christopher St - Sheridan Sq
258,F27,Church Av,40.644041,-73.979678,245-Church Av
259,D28,Church Av,40.650527,-73.962982,246-Church Av
260,244,Church Av,40.650843,-73.949575,247-Church Av
261,R24,City Hall,40.713282,-74.006978,248-City Hall
262,231,Clark St,40.697466,-73.993086,249-Clark St
263,G34,Classon Av,40.688873,-73.96007,250-Classon Av
264,J22,Cleveland St,40.679947,-73.884639,251-Cleveland St
265,S28,Clifton,40.621319,-74.071402,252-Clifton
266,G35,Clinton - Washington Avs,40.688089,-73.966839,253-Clinton - Washington Avs
267,A44,Clinton - Washington Avs,40.683263,-73.965838,254-Clinton - Washington Avs
268,D43,Coney Island - Stillwell Av,40.577422,-73.981233,255-Coney Island - Stillwell Av
269,D30,Cortelyou Rd,40.640927,-73.963891,256-Cortelyou Rd
270,R25,Cortlandt St,40.710668,-74.011029,257-Cortlandt St
271,G22,Court Sq,40.746554,-73.943832,258-Court Sq
272,F09,Court Sq,40.747846,-73.946,259-Court Sq
273,719,Court Sq,40.747023,-73.945264,259-Court Sq
274,R28,Court St,40.6941,-73.991777,260-Court St
275,J20,Crescent St,40.683194,-73.873785,261-Crescent St
276,250,Crown Hts - Utica Av,40.668897,-73.932942,262-Crown Hts - Utica Av
277,617,Cypress Av,40.805368,-73.914042,263-Cypress Av
278,J19,Cypress Hills,40.689941,-73.87255,264-Cypress Hills
279,R30,DeKalb Av,40.690635,-73.981824,265-DeKalb Av
280,L16,DeKalb Av,40.703811,-73.918425,266-DeKalb Av
281,F15,Delancey St,40.718611,-73.988114,267-Delancey St
282,F29,Ditmas Av,40.636119,-73.978172,268-Ditmas Av
283,S25,Dongan Hills,40.588849,-74.09609,269-Dongan Hills
284,A03,Dyckman St,40.865491,-73.927271,270-Dyckman St
285,109,Dyckman St,40.860531,-73.925536,271-Dyckman St
286,L28,E 105 St,40.650573,-73.899485,272-E 105 St
287,616,E 143 St - St Mary's St,40.808719,-73.907657,273-E 143 St - St Mary's St
288,615,E 149 St,40.812118,-73.904098,274-E 149 St
289,213,E 180 St,40.841894,-73.873488,275-E 180 St
290,F16,East Broadway,40.713715,-73.990173,276-East Broadway
291,501,Eastchester - Dyre Av,40.8883,-73.830834,277-Eastchester - Dyre Av
292,238,Eastern Pkwy - Brooklyn Museum,40.671987,-73.964375,278-Eastern Pkwy - Brooklyn Museum
293,611,Elder Av,40.828584,-73.879159,279-Elder Av
294,G13,Elmhurst Av,40.742454,-73.882017,280-Elmhurst Av
295,S18,Eltingville,40.544601,-74.16457,281-Eltingville
296,M18,Essex St,40.718315,-73.987437,282-Essex St
297,A55,Euclid Av,40.675377,-73.872106,283-Euclid Av
298,H11,Far Rockaway - Mott Av,40.603995,-73.755405,284-Far Rockaway - Mott Av
299,247,Flatbush Av - Brooklyn College,40.632836,-73.947642,285-Flatbush Av - Brooklyn College
300,701,Flushing - Main St,40.7596,-73.83003,286-Flushing - Main St
301,G31,Flushing Av,40.700377,-73.950234,287-Flushing Av
302,M12,Flushing Av,40.70026,-73.941126,288-Flushing Av
303,407,Fordham Rd,40.862803,-73.901034,289-Fordham Rd
304,D05,Fordham Rd,40.861296,-73.897749,290-Fordham Rd
305,M05,Forest Av,40.704423,-73.903077,291-Forest Av
306,G08,Forest Hills - 71 Av,40.721691,-73.844521,292-Forest Hills - 71 Av
307,N03,Fort Hamilton Pkwy,40.631386,-74.005351,293-Fort Hamilton Pkwy
308,F26,Fort Hamilton Pkwy,40.650782,-73.975776,294-Fort Hamilton Pkwy
309,B13,Fort Hamilton Pkwy,40.640914,-73.994304,295-Fort Hamilton Pkwy
310,239,Franklin Av,40.670682,-73.958131,296-Franklin Av
311,S01,Franklin Av,40.680596,-73.955827,297-Franklin Av
312,A45,Franklin Av,40.68138,-73.956848,297-Franklin Av
313,136,Franklin St,40.719318,-74.006886,298-Franklin St
314,216,Freeman St,40.829993,-73.891865,299-Freeman St
315,M04,Fresh Pond Rd,40.706186,-73.895877,300-Fresh Pond Rd
316,229,Fulton St,40.709416,-74.006571,301-Fulton St
317,G36,Fulton St,40.687119,-73.975375,302-Fulton St
318,M22,Fulton St,40.710374,-74.007582,303-Fulton St
319,A38,Fulton St,40.710197,-74.007691,303-Fulton St
320,418,Fulton St,40.710368,-74.009509,303-Fulton St
321,J30,Gates Av,40.68963,-73.92227,304-Gates Av
322,L11,Graham Av,40.714565,-73.944053,305-Graham Av
323,237,Grand Army Plaza,40.675235,-73.971046,306-Grand Army Plaza
324,G12,Grand Av - Newtown,40.737015,-73.877223,307-Grand Av - Newtown
325,723,Grand Central - 42 St,40.751431,-73.976041,308-Grand Central - 42 St
326,901,Grand Central - 42 St,40.752769,-73.979189,309-Grand Central - 42 St
327,631,Grand Central - 42 St,40.751776,-73.976848,310-Grand Central - 42 St
328,L12,Grand St,40.711926,-73.94067,311-Grand St
329,D22,Grand St,40.718267,-73.993753,312-Grand St
330,A57,Grant Av,40.677044,-73.86505,313-Grant Av
331,S23,Grant City,40.578965,-74.109704,314-Grant City
332,S27,Grasmere,40.603117,-74.084087,315-Grasmere
333,S19,Great Kills,40.551231,-74.151399,316-Great Kills
334,G26,Greenpoint Av,40.731352,-73.954449,317-Greenpoint Av
335,503,Gun Hill Rd,40.869526,-73.846384,318-Gun Hill Rd
336,208,Gun Hill Rd,40.87785,-73.866256,319-Gun Hill Rd
337,J29,Halsey St,40.68637,-73.916559,320-Halsey St
338,L19,Halsey St,40.695602,-73.904084,321-Halsey St
339,301,Harlem - 148 St,40.82388,-73.93647,322-Harlem - 148 St
340,M14,Hewes St,40.70687,-73.953431,323-Hewes St
341,A40,High St,40.699337,-73.990531,324-High St
342,134,Houston St,40.728251,-74.005367,325-Houston St
343,H03,Howard Beach - JFK Airport,40.660476,-73.830301,326-Howard Beach - JFK Airport
344,A42,Hoyt - Schermerhorn Sts,40.688484,-73.985001,327-Hoyt - Schermerhorn Sts
345,233,Hoyt St,40.690545,-73.985065,328-Hoyt St
346,S16,Huguenot,40.533674,-74.191794,329-Huguenot
347,720,Hunters Point Av,40.742216,-73.948916,330-Hunters Point Av
348,613,Hunts Point Av,40.820948,-73.890549,331-Hunts Point Av
349,218,Intervale Av,40.822181,-73.896736,332-Intervale Av
350,A02,Inwood - 207 St,40.868072,-73.919899,333-Inwood - 207 St
351,220,Jackson Av,40.81649,-73.907807,334-Jackson Av
352,G14,Jackson Hts - Roosevelt Av,40.746644,-73.891338,335-Jackson Hts - Roosevelt Av
353,F01,Jamaica - 179 St,40.712646,-73.783817,336-Jamaica - 179 St
354,G07,Jamaica - Van Wyck,40.702566,-73.816859,337-Jamaica - Van Wyck
355,G05,Jamaica Center - Parsons/Archer,40.702147,-73.801109,338-Jamaica Center - Parsons/Archer
356,R29,Jay St - MetroTech,40.69218,-73.985942,339-Jay St - MetroTech
357,A41,Jay St - MetroTech,40.692338,-73.987342,339-Jay St - MetroTech
358,S24,Jefferson Av,40.583591,-74.103338,340-Jefferson Av
359,L15,Jefferson St,40.706607,-73.922913,341-Jefferson St
360,707,Junction Blvd,40.749145,-73.869527,342-Junction Blvd
361,254,Junius St,40.663515,-73.902447,343-Junius St
362,F06,Kew Gardens - Union Tpke,40.714441,-73.831008,344-Kew Gardens - Union Tpke
363,F35,Kings Hwy,40.603217,-73.972361,345-Kings Hwy
364,N08,Kings Hwy,40.603923,-73.980353,346-Kings Hwy
365,D35,Kings Hwy,40.60867,-73.957734,347-Kings Hwy
366,406,Kingsbridge Rd,40.86776,-73.897174,348-Kingsbridge Rd
367,D04,Kingsbridge Rd,40.866978,-73.893509,349-Kingsbridge Rd
368,A47,Kingston - Throop Avs,40.679921,-73.940858,350-Kingston - Throop Avs
369,249,Kingston Av,40.669399,-73.942161,351-Kingston Av
370,M09,Knickerbocker Av,40.698664,-73.919711,352-Knickerbocker Av
371,J31,Kosciuszko St,40.693342,-73.928814,353-Kosciuszko St
372,A43,Lafayette Av,40.686113,-73.973946,354-Lafayette Av
373,F11,Lexington Av/53 St,40.757552,-73.969055,355-Lexington Av/53 St
374,R11,Lexington Av/59 St,40.76266,-73.967258,356-Lexington Av/59 St
375,B08,Lexington Av/63 St,40.764629,-73.966113,357-Lexington Av/63 St
376,A52,Liberty Av,40.674542,-73.896548,358-Liberty Av
377,L26,Livonia Av,40.664038,-73.900571,359-Livonia Av
378,614,Longwood Av,40.816104,-73.896435,360-Longwood Av
379,M13,Lorimer St,40.703869,-73.947408,361-Lorimer St
380,L10,Lorimer St,40.714063,-73.950275,362-Lorimer St
381,106,Marble Hill - 225 St,40.874561,-73.909831,363-Marble Hill - 225 St
382,M16,Marcy Av,40.708359,-73.957757,364-Marcy Av
383,G29,Metropolitan Av,40.712792,-73.951418,365-Metropolitan Av
384,702,Mets - Willets Point,40.754622,-73.845625,366-Mets - Willets Point
385,M01,Middle Village - Metropolitan Av,40.711396,-73.889601,367-Middle Village - Metropolitan Av
386,603,Middletown Rd,40.843863,-73.836322,368-Middletown Rd
387,L13,Montrose Av,40.707739,-73.93985,369-Montrose Av
388,L14,Morgan Av,40.706152,-73.933147,370-Morgan Av
389,505,Morris Park,40.854364,-73.860495,371-Morris Park
390,610,Morrison Av- Sound View,40.829521,-73.874516,372-Morrison Av- Sound View
391,402,Mosholu Pkwy,40.87975,-73.884655,373-Mosholu Pkwy
392,411,Mt Eden Av,40.844434,-73.914685,374-Mt Eden Av
393,G32,Myrtle - Willoughby Avs,40.694568,-73.949046,375-Myrtle - Willoughby Avs
394,M08,Myrtle - Wyckoff Avs,40.69943,-73.912385,376-Myrtle - Wyckoff Avs
395,L17,Myrtle - Wyckoff Avs,40.699814,-73.911586,376-Myrtle - Wyckoff Avs
396,M11,Myrtle Av,40.697207,-73.935657,377-Myrtle Av
397,S12,Nassau,40.517812,-74.238373,378-Nassau
398,G28,Nassau Av,40.724635,-73.951277,379-Nassau Av
399,D38,Neck Rd,40.595246,-73.955161,380-Neck Rd
400,F39,Neptune Av,40.581011,-73.974574,381-Neptune Av
401,204,Nereid Av,40.898379,-73.854376,382-Nereid Av
402,234,Nevins St,40.688246,-73.980492,383-Nevins St
403,S22,New Dorp,40.57348,-74.11721,384-New Dorp
404,L27,New Lots Av,40.658733,-73.899232,385-New Lots Av
405,257,New Lots Av,40.666235,-73.884079,386-New Lots Av
406,N04,New Utrecht Av,40.624842,-73.996353,387-New Utrecht Av
407,246,Newkirk Av,40.639967,-73.948411,388-Newkirk Av
408,D31,Newkirk Plaza,40.635082,-73.962793,389-Newkirk Plaza
409,G16,Northern Blvd,40.752885,-73.906006,390-Northern Blvd
410,D01,Norwood - 205 St,40.874811,-73.878855,391-Norwood - 205 St
411,J21,Norwood Av,40.68141,-73.880039,392-Norwood Av
412,248,Nostrand Av,40.669847,-73.950466,393-Nostrand Av
413,A46,Nostrand Av,40.680438,-73.950426,394-Nostrand Av
414,S21,Oakwood Heights,40.56511,-74.12632,395-Oakwood Heights
415,D41,Ocean Pkwy,40.576312,-73.968501,396-Ocean Pkwy
416,S26,Old Town,40.596612,-74.087368,397-Old Town
417,A65,Ozone Park - Lefferts Blvd,40.685951,-73.825798,398-Ozone Park - Lefferts Blvd
418,S03,Park Pl,40.674772,-73.957624,399-Park Pl
419,228,Park Pl,40.713051,-74.008811,400-Park Pl
420,608,Parkchester,40.833226,-73.860816,401-Parkchester
421,D27,Parkside Av,40.655292,-73.961495,402-Parkside Av
422,F03,Parsons Blvd,40.707564,-73.803326,403-Parsons Blvd
423,601,Pelham Bay Park,40.852462,-73.828121,404-Pelham Bay Park
424,211,Pelham Pkwy,40.857192,-73.867615,405-Pelham Pkwy
425,504,Pelham Pkwy,40.858985,-73.855359,406-Pelham Pkwy
426,255,Pennsylvania Av,40.664635,-73.894895,407-Pennsylvania Av
427,S14,Pleasant Plains,40.52241,-74.217847,408-Pleasant Plains
428,241,President St,40.667883,-73.950683,409-President St
429,R22,Prince St,40.724329,-73.997702,410-Prince St
430,S15,Prince's Bay,40.525507,-74.200064,411-Prince's Bay
431,219,Prospect Av,40.819585,-73.90177,412-Prospect Av
432,R34,Prospect Av,40.665414,-73.992872,413-Prospect Av
433,D26,Prospect Park,40.661614,-73.962246,414-Prospect Park
434,G21,Queens Plaza,40.748973,-73.937243,415-Queens Plaza
435,718,Queensboro Plaza,40.750582,-73.940202,416-Queensboro Plaza
436,R09,Queensboro Plaza,40.750582,-73.940202,416-Queensboro Plaza
437,A49,Ralph Av,40.678822,-73.920786,417-Ralph Av
438,139,Rector St,40.707513,-74.013783,418-Rector St
439,R26,Rector St,40.70722,-74.013342,418-Rector St
440,S13,Richmond Valley,40.519631,-74.229141,419-Richmond Valley
441,253,Rockaway Av,40.662549,-73.908946,420-Rockaway Av
442,A50,Rockaway Av,40.67834,-73.911946,421-Rockaway Av
443,A61,Rockaway Blvd,40.680429,-73.843853,422-Rockaway Blvd
444,H15,Rockaway Park - Beach 116 St,40.580903,-73.835592,423-Rockaway Park - Beach 116 St
445,B06,Roosevelt Island,40.759145,-73.95326,424-Roosevelt Island
446,N12,S.B. Coney Island,40.577422,-73.981233,425-S.B. Coney Island
447,252,Saratoga Av,40.661453,-73.916327,426-Saratoga Av
448,M06,Seneca Av,40.702762,-73.90774,427-Seneca Av
449,D39,Sheepshead Bay,40.586896,-73.954155,428-Sheepshead Bay
450,A54,Shepherd Av,40.67413,-73.88075,429-Shepherd Av
451,217,Simpson St,40.824073,-73.893064,430-Simpson St
452,F22,Smith - 9 Sts,40.67358,-73.995959,431-Smith - 9 Sts
453,142,South Ferry,40.702068,-74.013664,432-South Ferry
454,140,South Ferry Loop,40.701411,-74.013205,433-South Ferry Loop
455,A33,Spring St,40.726227,-74.003739,434-Spring St
456,638,Spring St,40.722301,-73.997141,435-Spring St
457,S31,St George,40.643748,-74.073643,436-St George
458,609,St Lawrence Av,40.831509,-73.867618,437-St Lawrence Av
459,S29,Stapleton,40.627915,-74.075162,438-Stapleton
460,G19,Steinway St,40.756879,-73.92074,439-Steinway St
461,242,Sterling St,40.662742,-73.95085,440-Sterling St
462,F04,Sutphin Blvd,40.70546,-73.810708,441-Sutphin Blvd
463,G06,Sutphin Blvd - Archer Av - JFK Airport,40.700486,-73.807969,442-Sutphin Blvd - Archer Av - JFK Airport
464,L25,Sutter Av,40.669367,-73.901975,443-Sutter Av
465,251,Sutter Av - Rutland Rd,40.664717,-73.92261,444-Sutter Av - Rutland Rd
466,R16,Times Sq - 42 St,40.754672,-73.986754,445-Times Sq - 42 St
467,725,Times Sq - 42 St,40.755477,-73.987691,445-Times Sq - 42 St
468,902,Times Sq - 42 St,40.755983,-73.986229,445-Times Sq - 42 St
469,127,Times Sq - 42 St,40.75529,-73.987495,445-Times Sq - 42 St
470,S30,Tompkinsville,40.636949,-74.074835,446-Tompkinsville
471,S09,Tottenville,40.512764,-74.251961,447-Tottenville
472,D07,Tremont Av,40.85041,-73.905227,448-Tremont Av
473,L03,Union Sq - 14 St,40.734789,-73.99073,449-Union Sq - 14 St
474,R32,Union St,40.677316,-73.98311,450-Union St
475,A48,Utica Av,40.679364,-73.930729,451-Utica Av
476,101,Van Cortlandt Park - 242 St,40.889248,-73.898583,452-Van Cortlandt Park - 242 St
477,J23,Van Siclen Av,40.678024,-73.891688,453-Van Siclen Av
478,A53,Van Siclen Av,40.67271,-73.890358,454-Van Siclen Av
479,256,Van Siclen Av,40.665449,-73.889395,455-Van Siclen Av
480,721,Vernon Blvd - Jackson Av,40.742626,-73.953581,456-Vernon Blvd - Jackson Av
481,A32,W 4 St,40.732338,-74.000495,457-W 4 St
482,D20,W 4 St,40.732338,-74.000495,457-W 4 St
483,D42,W 8 St - NY Aquarium,40.576127,-73.975939,458-W 8 St - NY Aquarium
484,138,WTC Cortlandt,40.711835,-74.012188,459-WTC Cortlandt
485,201,Wakefield - 241 St,40.903125,-73.85062,460-Wakefield - 241 St
486,230,Wall St,40.706821,-74.0091,461-Wall St
487,419,Wall St,40.707557,-74.011862,462-Wall St
488,214,West Farms Sq - E Tremont Av,40.840295,-73.880049,463-West Farms Sq - E Tremont Av
489,604,Westchester Sq - E Tremont Av,40.839892,-73.842952,464-Westchester Sq - E Tremont Av
490,R27,Whitehall St,40.703087,-74.012994,465-Whitehall St
491,612,Whitlock Av,40.826525,-73.886283,466-Whitlock Av
492,L20,Wilson Av,40.688764,-73.904046,467-Wilson Av
493,243,Winthrop St,40.656652,-73.9502,468-Winthrop St
494,J15,Woodhaven Blvd,40.693879,-73.851576,469-Woodhaven Blvd
495,G11,Woodhaven Blvd,40.733106,-73.869229,470-Woodhaven Blvd
496,401,Woodlawn,40.886037,-73.878751,471-Woodlawn
497,712,Woodside - 61 St,40.74563,-73.902984,472-Woodside - 61 St
498,E01,World Trade Center,40.712582,-74.009781,473-World Trade Center
499,F18,York St,40.701397,-73.986751,474-York St
500,606,Zerega Av,40.836488,-73.847036,475-Zerega Av